,CityName,Clouds,Counter,CountryCode,Humidity,Latitude,Longitude,Temperature,WindSpeed
0,khatanga,64,1,ru,86,88.1038,98.137,50.16,21.5
1,thompson,75,2,ca,47,63.6157,-92.4111,75.2,6.93
2,primorsko-akhtarsk,0,3,ru,79,45.9962,37.8597,75.0,10.65
3,domoni,0,4,km,0,-10.847,45.9722,0.0,0.0
4,mogadishu,12,5,so,99,-1.4965,48.786,78.78,16.69
5,tsienyane,0,6,bw,0,-20.726,24.4049,0.0,0.0
6,albany,90,7,au,53,-62.7377,108.0203,73.4,5.82
7,baykit,0,8,ru,96,64.4061,95.4,57.09,2.93
8,atuona,20,9,pf,100,-3.4233,-136.6887,80.4,11.21
9,jamestown,0,10,sh,69,-21.7563,0.8611,25.86,1.25
10,talnakh,12,11,ru,66,78.9953,88.4205,59.79,4.16
11,vaini,92,12,to,98,-67.4418,-176.5133,68.61,3.49
12,kapaa,75,13,us,83,21.3691,-159.0591,80.6,5.82
13,kemijarvi,0,14,fi,0,67.2565,26.8207,0.0,0.0
14,samdari,0,15,in,44,25.906,72.9566,86.88,9.08
15,saint-philippe,1,16,re,47,-61.6085,71.0451,78.8,18.34
16,ushuaia,75,17,ar,74,-86.5922,-29.4379,35.6,14.99
17,chihuahua,5,18,mx,16,29.5872,-106.4205,96.8,11.41
18,vila,0,19,vu,42,-15.3602,173.1551,82.4,5.82
19,bambous virieux,40,20,mu,88,-30.1882,77.5161,71.6,5.28
20,mar del plata,0,21,ar,52,-62.43,-32.824,52.14,24.74
21,busselton,88,22,au,100,-53.8395,92.3112,60.87,7.74
22,bluff,36,23,nz,89,-84.6725,154.3732,39.9,2.82
23,thinadhoo,12,24,mv,100,-0.7789,66.66,80.94,2.93
24,nyurba,0,25,ru,79,64.7414,117.459,56.01,6.62
25,tiksi,48,26,ru,72,84.5779,126.2761,54.3,3.71
26,bac lieu,0,27,vn,0,6.572,107.2636,0.0,0.0
27,ngukurr,0,28,au,0,-15.0387,135.6864,0.0,0.0
28,lokosovo,44,29,ru,66,59.7715,74.1539,59.7,14.34
29,qaanaaq,68,30,gl,98,78.8939,-89.9072,31.98,3.6
30,kieta,68,31,pg,100,-1.2016,159.1743,79.23,2.15
31,lebu,0,32,cl,85,-35.3774,-81.7064,45.21,1.7
32,gamba,76,33,ga,95,-8.5902,3.1101,31.26,2.26
33,mardin,0,34,tr,28,37.1845,40.5783,80.6,4.7
34,tessalit,0,35,ml,12,21.1444,3.9804,92.1,9.98
35,nikolskoye,20,36,ru,38,41.0353,173.0267,59.0,13.42
36,barentsburg,0,37,sj,0,83.3628,1.493,0.0,0.0
37,beloha,20,38,mg,81,-31.3296,42.8266,57.81,3.71
38,broken hill,0,39,au,73,-27.7151,143.4928,28.47,2.93
39,mataura,0,40,pf,77,-86.2986,-152.7365,24.33,2.37
40,punta arenas,75,41,cl,64,-64.9314,-106.3824,37.4,28.86
41,rikitea,44,42,pf,100,-38.2846,-128.2317,72.03,7.74
42,sterling,75,43,us,61,60.5977,-150.8373,84.2,4.7
43,hermanus,0,44,za,90,-70.9706,6.592,36.75,2.15
44,kualakapuas,80,45,id,99,-3.4498,113.7065,75.81,3.27
45,butaritari,76,46,ki,100,24.0206,175.9043,84.18,8.63
46,necochea,0,47,ar,68,-47.8681,-55.3572,54.12,11.43
47,port alfred,0,48,za,96,-38.7482,28.1568,58.98,9.08
48,inhambane,0,49,mz,94,-28.3187,37.442,71.6,6.62
49,richards bay,80,50,za,82,-33.8354,36.4383,64.56,5.06
50,vardo,75,51,no,73,84.8198,37.1784,82.4,3.36
51,cota,40,52,co,67,4.7535,-74.0274,60.8,11.41
52,ribeira grande,40,53,pt,83,38.39,-32.5338,75.2,9.17
53,arraial do cabo,0,54,br,78,-42.3807,-28.5391,75.2,13.87
54,ciocanesti,0,55,ro,61,44.1492,27.1388,78.8,8.05
55,ponta do sol,8,56,cv,68,21.3896,-32.2724,65.91,2.48
56,awbari,0,57,ly,23,25.5889,12.6216,78.6,6.17
57,spassk,24,58,ru,44,52.1596,87.8731,62.76,9.86
58,barrow,0,59,us,53,71.7607,-151.812,57.54,11.43
59,yabelo,64,60,et,95,5.2971,37.8967,61.41,2.15
60,norman wells,75,61,ca,64,61.9284,-125.4261,68.0,14.99
61,rawson,12,62,ar,41,-45.2842,-63.2059,47.1,12.77
62,nsukka,88,63,ng,94,6.734,7.4659,73.11,4.83
63,zaysan,80,64,kz,65,46.817,84.4173,59.52,3.15
64,fortuna,0,65,us,73,37.961,-141.0121,75.2,5.82
65,sitka,0,66,us,59,53.6721,-142.9659,84.0,14.0
66,clyde river,75,67,ca,86,69.4032,-70.0407,37.4,10.29
67,coalcoman,0,68,mx,0,18.8914,-103.3909,0.0,0.0
68,cazaje,0,69,ao,0,-10.9105,20.3412,0.0,0.0
69,taolanaro,0,70,mg,0,-38.1661,52.3951,0.0,0.0
70,vaitupu,0,71,wf,0,-12.1156,-178.5536,0.0,0.0
71,bonthe,92,72,sl,97,2.8582,-15.4758,75.18,5.06
72,hudson bay,0,73,ca,31,52.9386,-102.5167,86.61,5.39
73,hilo,75,74,us,69,8.3361,-147.5613,80.6,3.36
74,aqtobe,0,75,kz,35,50.1842,57.4641,69.8,8.95
75,tuktoyaktuk,75,76,ca,60,78.6084,-132.2094,42.8,6.93
76,east london,0,77,za,100,-67.0594,47.3386,64.38,6.85
77,provideniya,80,78,ru,100,52.5264,-176.9468,36.84,13.33
78,westport,75,79,nz,71,-39.7619,168.7617,51.8,17.22
79,laguna,5,80,br,24,-35.2334,-39.6594,91.4,6.93
80,chagda,0,81,ru,0,57.362,129.3302,0.0,0.0
81,nome,75,82,us,66,67.6143,-162.1406,89.6,14.99
82,mareeba,40,83,au,77,-14.7403,143.2532,59.0,10.29
83,springfield,90,84,us,88,44.182,-122.6038,73.4,13.87
84,labutta,0,85,mm,0,15.4991,92.7266,0.0,0.0
85,port macquarie,75,86,au,93,-32.9883,156.5238,51.8,5.82
86,port elizabeth,20,87,za,58,-70.4275,31.0173,82.4,8.05
87,puerto ayora,20,88,ec,54,-13.2634,-111.2747,84.2,19.46
88,cabedelo,20,89,br,61,-5.7866,-26.9933,80.6,17.22
89,pingzhuang,0,90,cn,0,43.0978,119.9397,0.0,0.0
90,klaksvik,76,91,fo,87,69.8846,-3.6967,46.4,11.41
91,avarua,20,92,ck,69,-16.0977,-161.5834,75.2,8.05
92,skaerbaek,0,93,dk,0,55.0628,8.6059,0.0,0.0
93,hobart,40,94,au,70,-77.0461,144.4995,44.6,3.36
94,anadyr,75,95,ru,76,65.7752,176.2429,48.2,8.95
95,sena madureira,0,96,br,52,-8.1555,-68.6122,83.55,1.59
96,ancud,92,97,cl,96,-38.8627,-96.4618,47.91,13.44
97,akureyri,0,98,is,43,64.6515,-18.5095,51.8,11.41
98,christchurch,90,99,nz,100,-47.8742,176.7371,41.0,4.7
99,fuling,92,100,cn,100,30.0897,107.7681,71.49,3.38
100,dikson,0,101,ru,88,83.0252,79.1699,33.69,21.27
101,mendi,92,102,pg,97,-6.6335,143.3138,60.33,2.82
102,caravelas,56,103,br,100,-23.2397,-24.9012,75.63,15.68
103,larreynaga,40,104,ni,74,12.664,-86.4775,86.0,3.38
104,yellowknife,40,105,ca,39,68.9028,-111.4765,82.4,8.05
105,carnarvon,0,106,au,66,-25.7892,97.2122,31.26,4.38
106,new norfolk,40,107,au,70,-86.3648,128.0492,44.6,3.36
107,saint anthony,1,108,ca,48,51.6334,-54.995,68.0,4.38
108,saskylakh,68,109,ru,74,76.3143,112.9091,51.78,11.77
109,ponta delgada,20,110,pt,88,29.472,-28.289,71.6,16.11
110,torbay,40,111,ca,55,35.8749,-44.0007,66.2,11.41
111,acapulco,75,112,mx,70,9.7967,-101.8921,86.0,8.05
112,rocha,0,113,uy,82,-42.2512,-47.3433,61.23,4.94
113,abhayapuri,92,114,in,97,26.3879,90.6484,74.91,3.38
114,walvis bay,0,115,na,82,-25.581,5.3592,57.2,8.63
115,tsybli,0,116,ua,64,49.9331,31.7718,68.0,4.47
116,naliya,88,117,in,80,23.2046,68.2317,83.1,13.67
117,charyshskoye,32,118,ru,63,51.2515,83.4927,63.75,3.38
118,el faiyum,0,119,eg,0,29.4105,30.3216,0.0,0.0
119,bredasdorp,0,120,za,93,-71.0875,15.9972,44.6,4.7
120,cockburn town,0,121,tc,96,27.3348,-68.891,84.36,11.1
121,srednekolymsk,0,122,ru,53,72.7942,154.6477,62.04,3.15
122,egvekinot,56,123,ru,57,66.448,-178.6557,43.68,1.59
123,gigante,0,124,co,71,2.3748,-75.5832,72.66,2.93
124,bethel,90,125,us,76,46.375,-168.5313,53.6,6.93
125,bereda,0,126,so,82,13.1149,51.6824,68.0,4.7
126,visby,40,127,se,72,56.9637,19.2793,66.2,24.16
127,belushya guba,0,128,ru,0,79.641,53.8819,0.0,0.0
128,bardiyah,0,129,ly,0,30.0575,24.3544,0.0,0.0
129,naze,40,130,jp,88,21.7563,138.243,75.2,1.48
130,sentyabrskiy,0,131,ru,0,33.205,155.7811,0.0,0.0
131,senador jose porfirio,32,132,br,78,-3.1328,-51.4231,83.73,2.71
132,faanui,76,133,pf,100,-2.7824,-155.6296,81.21,19.48
133,cherskiy,0,134,ru,53,74.0888,158.5979,56.73,1.92
134,kavieng,12,135,pg,100,8.2117,158.2165,82.29,3.71
135,cape town,0,136,za,93,-56.283,-4.9842,48.2,4.7
136,pevek,0,137,ru,78,87.3036,165.2226,42.51,2.71
137,pitimbu,20,138,br,61,-8.5124,-25.0983,80.6,17.22
138,lasa,40,139,cn,78,34.6546,92.6242,77.0,8.05
139,amderma,0,140,ru,0,73.3986,64.5192,0.0,0.0
140,wahiawa,1,141,us,65,21.9582,-158.0228,82.4,6.93
141,georgetown,40,142,sh,74,-8.9973,-21.7957,84.2,9.17
142,nizhneyansk,0,143,ru,0,87.5705,137.0194,0.0,0.0
143,kaili,32,144,cn,90,27.4795,107.9269,65.46,1.92
144,mys shmidta,0,145,ru,0,89.675,-174.0715,0.0,0.0
145,vostok,92,146,ru,100,52.1308,150.2792,54.84,2.59
146,chuy,0,147,uy,87,-52.926,-32.2024,60.96,4.61
147,giresun,44,148,tr,100,41.1747,38.6063,59.43,1.59
148,los llanos de aridane,75,149,es,77,28.2228,-17.7921,69.8,13.87
149,castro,88,150,cl,98,-47.4105,-93.8489,46.74,13.0
150,karaul,0,151,ru,0,69.5521,84.184,0.0,0.0
151,morro bay,1,152,us,52,34.6411,-122.9112,84.2,18.34
152,kashan,0,153,ir,27,34.422,51.7823,67.53,2.71
153,kaeo,92,154,nz,97,-34.6397,173.5113,55.2,21.5
154,illoqqortoormiut,0,155,gl,0,83.8812,-28.0062,0.0,0.0
155,ilulissat,40,156,gl,25,71.0882,-49.6575,60.8,20.8
156,fairbanks,20,157,us,45,68.7922,-145.8596,68.0,4.94
157,porto novo,20,158,cv,53,15.9282,-30.5519,77.0,1.12
158,aquiraz,20,159,br,62,-0.2774,-35.9527,84.2,14.99
159,codrington,0,160,ag,87,25.4794,-46.3401,47.73,4.94
160,yerbogachen,76,161,ru,82,62.8577,108.0901,68.16,0.92
161,banmo,0,162,mm,0,24.1817,97.8767,0.0,0.0
162,bathsheba,40,163,bb,66,22.9629,-44.9354,86.0,17.22
163,sangar,32,164,ru,64,64.9998,127.4087,59.34,7.74
164,te anau,0,165,nz,83,-42.7515,158.2502,22.53,2.15
165,trapani,0,166,it,78,38.4696,12.1367,73.4,1.12
166,jahangirpur,80,167,in,98,28.0969,77.7181,76.17,8.19
167,rancho palos verdes,40,168,us,68,32.9636,-118.83,78.8,6.93
168,sinnamary,76,169,gf,93,11.1785,-50.1193,81.66,10.76
169,tsihombe,0,170,mg,0,-27.1637,45.0363,0.0,0.0
170,longyearbyen,75,171,sj,81,88.2438,19.0842,42.8,13.87
171,turochak,0,172,ru,95,51.8852,87.6395,54.66,2.37
172,belaya gora,0,173,ru,45,70.301,145.0027,57.36,9.86
173,anan,92,174,jp,93,33.433,134.6833,68.97,2.37
174,puri,88,175,in,94,16.8929,88.0782,70.14,4.16
175,roebourne,0,176,au,44,-24.0775,118.0013,59.88,14.34
176,porto nacional,0,177,br,26,-11.3297,-48.3874,91.4,8.05
177,hamilton,20,178,bm,69,32.5272,-69.0319,80.6,18.34
178,sars,56,179,ru,87,56.1973,57.0312,53.85,9.42
179,port lincoln,20,180,au,100,-37.1875,133.9696,45.57,2.59
180,catia la mar,75,181,ve,58,11.5941,-67.1879,87.8,6.93
181,port-de-bouc,0,182,fr,54,42.7636,4.571,80.6,5.82
182,yining,92,183,cn,99,43.8483,81.2845,71.85,2.71
183,bani walid,0,184,ly,58,31.062,14.0865,70.86,10.31
184,ust-ishim,32,185,ru,92,57.8602,70.7341,53.04,3.04
185,victoria,75,186,sc,100,-0.0681,62.7497,78.8,2.37
186,ventspils,0,187,lv,87,58.627,20.7875,60.8,13.87
187,jumla,44,188,np,84,34.9298,84.0497,35.22,2.71
188,hofn,20,189,is,66,59.3428,-15.1496,53.6,13.87
189,hihifo,0,190,to,0,-15.801,-174.8696,0.0,0.0
190,goderich,0,191,sl,64,3.8584,-19.5942,73.11,8.08
191,mayo,75,192,ca,35,64.8615,-139.4112,73.4,3.36
192,bonavista,64,193,ca,76,50.964,-47.5574,55.74,12.66
193,kaspiyskiy,0,194,ru,73,45.1918,47.8898,74.28,12.1
194,pacific grove,1,195,us,34,27.4576,-133.0363,80.6,8.41
195,harlingen,75,196,nl,66,54.6187,5.0547,91.4,11.41
196,saint-pierre,0,197,pm,64,41.324,-56.9117,77.0,4.7
197,makakilo city,1,198,us,65,13.813,-162.7252,82.4,8.05
198,ye,0,199,mm,0,15.5936,98.4208,0.0,0.0
199,klenovyy,12,200,ua,41,48.033,39.5721,78.96,8.3
200,airai,0,201,pw,89,10.3195,139.9695,64.38,1.81
201,waverly,1,202,us,62,42.6521,-92.9831,89.6,3.36
202,pimenta bueno,32,203,br,45,-11.5039,-60.1308,85.71,2.04
203,mahebourg,40,204,mu,88,-43.6355,78.0354,71.6,5.28
204,kysyl-syr,44,205,ru,85,62.5849,123.9113,55.38,7.29
205,buqayq,0,206,sa,0,26.4283,48.3565,0.0,0.0
206,zavitinsk,0,207,ru,84,49.9734,129.2272,52.86,6.51
207,saint george,40,208,us,53,36.7147,-114.0411,73.4,5.82
208,prainha,20,209,br,77,-1.4867,-53.3211,82.83,2.93
209,yulara,0,210,au,60,-28.0899,129.5165,39.2,5.82
210,mekhe,12,211,sn,81,15.4303,-16.8131,74.28,8.52
211,tabialan,0,212,ph,0,4.3264,123.161,0.0,0.0
212,san quintin,92,213,mx,92,28.1939,-117.0172,73.74,2.93
213,sorvag,0,214,fo,0,63.6164,-9.3713,0.0,0.0
214,bengkulu,0,215,id,0,-13.0129,93.969,0.0,0.0
215,kruisfontein,0,216,za,96,-70.746,27.9657,53.4,6.62
216,edd,36,217,er,49,13.9106,40.6755,82.11,2.71
217,ostrovnoy,100,218,ru,100,71.0464,42.252,46.56,8.75
218,tahoua,0,219,ne,51,16.1857,4.7311,85.17,11.21
219,hithadhoo,56,220,mv,100,-2.2642,69.9328,83.91,6.4
220,tiznit,24,221,ma,90,25.347,-7.9382,62.85,3.15
221,santa cruz,1,222,cr,72,7.6883,-89.4262,69.8,8.05
222,ukiah,1,223,us,28,34.6614,-131.2406,80.6,3.04
223,kibre mengist,76,224,et,99,6.3289,39.2088,58.17,2.15
224,lompoc,1,225,us,39,28.1743,-128.2103,78.8,8.05
225,namibe,12,226,ao,100,-18.418,9.0096,68.34,6.06
226,huarmey,0,227,pe,73,-14.3588,-87.3111,65.64,3.71
227,nemuro,92,228,jp,100,37.4158,151.435,51.69,11.65
228,baruun-urt,44,229,mn,82,46.0113,115.001,50.7,3.15
229,northam,40,230,au,77,-27.3163,120.8001,60.8,11.41
230,lagoa,20,231,pt,94,48.3824,-32.1419,68.0,8.05
231,turukhansk,0,232,ru,65,65.0476,90.0686,62.31,11.32
232,moranbah,0,233,au,75,-22.4567,147.4684,34.68,3.38
233,benguela,0,234,ao,100,-10.9961,8.1379,68.88,4.05
234,kodiak,20,235,us,73,49.0035,-148.8884,77.0,13.87
235,braganca,64,236,br,93,-1.0558,-46.9886,75.81,6.73
236,hammerfest,90,237,no,93,75.5999,22.3574,46.4,8.05
237,guerrero negro,0,238,mx,62,17.9196,-126.197,73.11,9.98
238,cabo san lucas,20,239,mx,33,17.4441,-117.667,87.8,9.17
239,lubumbashi,0,240,cd,59,-11.058,27.5611,54.84,6.62
240,kuche,0,241,cn,0,39.9835,84.0921,0.0,0.0
241,ksenyevka,0,242,ru,0,54.8077,117.3961,0.0,0.0
242,buchanan,75,243,lr,88,4.9688,-9.2924,78.8,9.17
243,bulgan,88,244,mn,91,47.3237,101.8307,56.64,2.82
244,kjollefjord,90,245,no,93,71.7239,27.3526,46.4,5.82
245,pareora,0,246,nz,100,-45.5927,172.0799,30.9,3.15
246,adjumani,56,247,ug,96,3.042,31.5349,64.38,2.93
247,bilibino,0,248,ru,58,68.175,166.2923,61.5,3.15
248,manavalakurichi,40,249,in,94,6.8491,76.6075,77.0,5.82
249,birao,76,250,cf,96,10.6133,23.7495,70.32,3.15
250,qesarya,40,251,il,73,32.7173,34.0569,78.8,8.05
251,sept-iles,75,252,ca,49,55.6121,-65.5851,68.0,10.29
252,grand river south east,0,253,mu,0,-24.8511,72.8058,0.0,0.0
253,kijang,0,254,id,88,0.9263,106.1253,66.2,3.36
254,biak,32,255,id,100,3.8652,140.2847,74.91,3.71
255,oga,88,256,jp,75,39.6716,139.4753,77.79,10.76
256,alice springs,0,257,au,55,-26.1147,133.9742,33.8,5.82
257,kostomuksha,0,258,ru,65,64.3434,30.7548,51.87,9.53
258,kushmurun,0,259,kz,0,51.7678,65.1609,0.0,0.0
259,zhezkazgan,0,260,kz,32,47.4274,68.6561,68.0,4.47
260,drumheller,0,261,ca,43,51.387,-112.866,78.78,10.42
261,henties bay,8,262,na,100,-23.0524,8.5051,55.56,6.4
262,chadiza,0,263,zm,77,-14.9807,33.1207,55.83,6.51
263,kachug,92,264,ru,91,53.3818,106.4688,58.71,2.15
264,souillac,0,265,mu,45,-38.7542,67.8858,86.0,5.82
265,dingle,56,266,ie,96,50.7648,-17.9305,74.19,3.15
266,chokurdakh,0,267,ru,84,88.1653,143.2576,42.78,9.42
267,portland,40,268,au,39,-46.9598,137.1692,84.2,6.93
268,uglovskoye,44,269,ru,80,51.4338,79.9899,55.92,3.15
269,chapais,1,270,ca,34,57.9217,-75.2942,57.2,14.99
270,hurghada,0,271,eg,0,28.3115,32.8598,0.0,0.0
271,vung tau,75,272,vn,94,9.4623,107.4075,80.6,8.05
272,surin,64,273,th,88,14.1973,103.3767,76.71,10.09
273,lavrentiya,48,274,ru,97,70.0146,-171.1631,37.38,13.44
274,maceio,40,275,br,61,-13.1826,-32.3429,80.6,12.75
275,kutum,20,276,sd,75,18.9314,26.6879,71.94,7.4
276,touros,36,277,br,71,0.3374,-29.322,80.58,18.81
277,kaitangata,0,278,nz,76,-78.964,177.1163,26.85,3.94
278,donja dubica,0,279,ba,73,45.2066,18.3846,75.2,5.82
279,joshimath,48,280,in,100,33.6427,82.014,33.33,0.36
280,acarau,0,281,br,0,7.6962,-38.947,0.0,0.0
281,najran,40,282,sa,11,18.5198,43.834,91.4,6.93
282,severo-kurilsk,80,283,ru,99,31.5903,164.6249,41.52,7.52
283,chardara,0,284,kz,0,42.2895,66.6084,0.0,0.0
284,urucara,48,285,br,92,-1.0533,-57.8692,75.0,3.71
285,belen,40,286,us,65,34.6059,-107.1523,77.0,11.41
286,hunza,0,287,pk,0,37.1587,75.0999,0.0,0.0
287,bilma,0,288,ne,25,21.4338,11.2542,91.38,10.54
288,grand centre,0,289,ca,0,54.4419,-109.6051,0.0,0.0
289,karauzyak,0,290,uz,0,45.236,58.9619,0.0,0.0
290,pisco,90,291,pe,88,-19.2009,-85.2068,62.6,10.29
291,port augusta,32,292,au,93,-32.1256,138.7387,37.4,5.82
292,ilebo,0,293,cd,75,-2.6539,21.5423,76.26,2.15
293,iralaya,92,294,hn,83,14.5332,-83.0346,83.64,7.85
294,jucurutu,0,295,br,35,-6.0047,-37.1271,84.81,10.65
295,taft,76,296,ir,100,31.6254,54.1108,76.26,3.38
296,sola,0,297,vu,47,-11.9959,170.4794,59.0,4.7
297,leshukonskoye,92,298,ru,98,67.9603,48.5323,55.74,4.72
298,sao felix do xingu,56,299,br,63,-8.7113,-52.1565,81.66,4.72
299,yialos,0,300,gr,0,34.9005,23.4262,0.0,0.0
300,cachoeira do sul,8,301,br,93,-29.9967,-52.6938,61.05,2.37
301,erenhot,8,302,cn,72,43.4072,109.382,52.5,3.49
302,umm lajj,0,303,sa,74,26.1608,36.3594,83.91,12.66
303,guajara,40,304,br,55,-2.9376,-57.8707,87.8,8.05
304,toamasina,40,305,mg,94,-18.8158,50.0488,69.8,3.36
305,marcona,0,306,pe,0,-15.5336,-75.7583,0.0,0.0
306,wanlaweyn,24,307,so,85,2.1005,44.1903,75.27,9.75
307,takoradi,92,308,gh,96,2.8895,-1.5231,78.96,7.96
308,lavumisa,76,309,sz,95,-27.863,31.9971,58.98,2.26
309,qaqortoq,75,310,gl,27,61.3529,-46.0123,53.6,41.38
310,araouane,0,311,ml,13,19.1788,-6.9434,94.8,8.19
311,santarem,0,312,br,0,-3.2551,-54.0219,0.0,0.0
312,placido de castro,0,313,br,52,-10.9387,-67.3399,83.82,2.04
313,painesville,90,314,us,72,42.0774,-81.459,73.4,12.75
314,tuatapere,0,315,nz,100,-47.2134,162.0767,34.68,4.94
315,salalah,75,316,om,88,17.5161,51.0583,82.4,6.93
316,beringovskiy,8,317,ru,100,56.4626,174.4523,44.4,8.41
317,hambantota,48,318,lk,98,-8.0243,86.6824,81.21,15.68
318,quatre cocos,40,319,mu,88,-15.6357,68.6284,71.6,5.28
319,mana,0,320,gf,64,11.7687,-53.3589,75.2,2.24
320,puerto cabezas,75,321,ni,94,13.5144,-82.3827,80.6,13.87
321,sibu,75,322,my,94,2.3975,112.091,77.0,4.7
322,broome,75,323,au,77,-19.5176,125.8369,71.6,6.93
323,margate,40,324,za,70,-36.5313,35.5319,44.6,3.36
324,bandarbeyla,32,325,so,82,10.372,50.3672,77.79,30.78
325,zdvinsk,48,326,ru,93,54.1889,78.6979,54.12,6.73
326,celestun,44,327,mx,93,22.1729,-92.3985,83.82,8.08
327,denpasar,92,328,id,100,-11.579,114.6765,71.58,1.92
328,chauk,32,329,mm,92,20.7472,94.139,77.52,9.75
329,pauini,0,330,br,53,-7.953,-66.5968,86.97,3.27
330,kandi,44,331,bj,69,10.8851,2.8794,81.57,10.65
331,kyabe,88,332,td,95,9.283,19.986,72.75,2.04
332,saldanha,32,333,za,64,-41.8629,-4.3942,70.23,4.16
333,la palma,64,334,pa,56,6.244,-81.3369,79.5,0.25
334,flin flon,40,335,ca,29,56.3419,-101.7268,89.6,12.75
335,tawnat,0,336,ma,0,33.782,-3.4536,0.0,0.0
336,samarai,92,337,pg,100,-15.2543,153.8736,76.89,17.13
337,tuckahoe,1,338,us,62,37.5749,-78.0909,89.6,3.36
338,chandler,1,339,ca,11,48.2163,-64.7482,98.6,9.17
339,sorland,40,340,no,87,71.5775,8.397,50.0,8.05
340,wasilla,1,341,us,48,62.8456,-149.3695,62.6,2.59
341,puerto del rosario,20,342,es,68,24.9703,-12.8027,71.6,17.22
342,avaton,20,343,gr,54,41.0011,24.7516,78.8,4.7
343,manga,68,344,br,54,-14.6053,-44.243,85.26,8.3
344,taldan,0,345,ru,82,53.1091,124.2762,56.55,3.6
345,gwanda,0,346,zw,64,-21.0138,29.178,58.35,9.86
346,menongue,0,347,ao,63,-14.9405,18.4055,51.78,2.37
347,maksatikha,0,348,ru,52,58.0681,36.0085,59.43,14.0
348,surgut,0,349,ru,77,60.9673,73.625,60.8,13.42
349,santana do livramento,0,350,br,81,-30.8834,-55.6478,64.56,4.72
350,san cristobal,75,351,ec,44,-1.6739,-89.0709,59.0,18.34
351,gigmoto,76,352,ph,100,15.6515,127.025,79.14,6.17
352,narsaq,75,353,gl,27,81.8734,-65.271,53.6,41.38
353,lorengau,12,354,pg,100,6.0005,145.1922,81.75,4.83
354,upernavik,36,355,gl,95,82.3505,-58.8041,32.7,11.77
355,silale,8,356,lt,74,55.4365,22.3546,60.33,6.62
356,stoyba,0,357,ru,0,54.4156,131.3029,0.0,0.0
357,xingcheng,0,358,cn,80,40.8222,120.6223,57.54,3.49
358,saint-joseph,90,359,re,50,-28.1072,54.6932,80.6,0.92
359,coihaique,75,360,cl,93,-48.1633,-78.3793,42.8,6.93
360,muroto,100,361,jp,100,28.6207,135.5328,69.6,5.17
361,attawapiskat,0,362,ca,0,54.4403,-85.6097,0.0,0.0
362,noumea,20,363,nc,87,-23.576,165.3073,57.2,2.24
363,saleaula,0,364,ws,0,0.508,-171.0864,0.0,0.0
364,pangody,56,365,ru,95,67.8671,73.9914,59.43,8.97
365,owensboro,40,366,us,52,38.025,-86.8557,89.6,12.75
366,sibolga,92,367,id,100,-3.6235,92.1847,71.22,2.37
367,la ronge,90,368,ca,60,61.4306,-104.3077,73.4,5.82
368,conceicao do araguaia,75,369,br,36,-9.5852,-50.5707,93.2,10.29
369,iqaluit,20,370,ca,70,61.66,-64.7389,42.8,25.28
370,akot,76,371,in,96,21.5785,76.972,73.29,4.94
371,iroquois falls,20,372,ca,58,49.2557,-80.5369,57.2,10.29
372,maragogi,20,373,br,80,-12.0719,-29.7949,75.0,9.98
373,maamba,0,374,zm,65,-17.4422,27.2541,52.32,3.38
374,havre-saint-pierre,1,375,ca,72,53.3937,-64.2016,59.0,16.11
375,kargasok,24,376,ru,88,61.5348,82.1201,54.12,5.95
376,kodinsk,0,377,ru,67,60.0576,100.0274,63.12,5.84
377,deputatskiy,0,378,ru,27,70.752,140.3148,59.79,8.63
378,da lat,68,379,vn,95,11.8566,108.7004,65.01,2.26
379,uspenka,12,380,ru,38,56.7496,69.076,78.15,7.74
380,lasem,92,381,id,98,-5.0332,112.2114,79.05,3.15
381,merauke,92,382,id,97,-7.7559,136.8276,75.63,15.9
382,komsomolskiy,24,383,ru,93,73.0567,175.4032,43.23,2.71
383,mnogovershinnyy,92,384,ru,100,54.4283,138.0237,45.12,2.59
384,high level,40,385,ca,30,60.7278,-119.4905,86.0,3.38
385,batagay-alyta,8,386,ru,77,67.9098,127.001,60.24,3.94
386,harper,90,387,lr,61,-2.2067,-9.4829,89.6,6.93
387,grand gaube,40,388,mu,88,-13.3809,67.2004,71.6,11.43
388,constitucion,40,389,mx,32,15.72,-123.3383,80.6,8.86
389,winnemucca,1,390,us,24,42.5639,-119.1929,82.4,6.93
390,cayenne,20,391,gf,70,12.1649,-47.3946,86.0,5.82
391,santa maria,0,392,cv,60,19.1818,-21.3518,75.2,4.7
392,orgita,20,393,ee,62,58.9476,24.3674,59.0,11.41
393,toungoo,0,394,mm,0,18.7107,96.1355,0.0,0.0
394,praia,20,395,cv,53,12.2634,-21.7878,75.2,6.93
395,lundamo,75,396,no,71,62.8639,10.7044,50.0,19.46
396,tezu,68,397,in,96,30.2794,97.2946,68.79,1.59
397,almaznyy,44,398,ru,38,62.6623,115.9414,79.68,8.3
398,montague,40,399,ca,41,46.3247,-62.7047,75.2,17.22
399,semnan,0,400,ir,60,34.2604,53.7616,66.99,8.08
400,stromness,75,401,gb,56,60.4585,-4.2977,73.4,2.15
401,falun,76,402,se,62,61.2158,15.2386,53.6,5.82
402,paamiut,92,403,gl,86,58.6151,-50.5774,41.52,12.88
403,gornopravdinsk,0,404,ru,76,62.3648,69.4479,58.8,4.61
404,kamenskoye,0,405,ru,0,62.5703,167.5844,0.0,0.0
405,azangaro,40,406,pe,31,-14.3705,-69.2978,60.8,2.24
406,arman,88,407,ru,93,58.7793,149.5167,42.8,3.71
407,bubaque,0,408,gw,69,7.5709,-20.8904,82.4,10.29
408,muros,0,409,es,83,46.6579,-15.2466,71.6,4.7
409,marang,0,410,my,0,5.9598,104.7942,0.0,0.0
410,omboue,20,411,ga,100,-5.1173,3.8959,75.54,11.43
411,abu dhabi,0,412,ae,79,23.697,55.6544,91.4,9.75
412,muzhi,0,413,ru,84,64.572,63.7922,50.88,2.26
413,temaraia,0,414,ki,0,1.4626,176.287,0.0,0.0
414,atar,80,415,mr,20,22.5846,-10.8293,96.6,7.07
415,tanete,92,416,id,99,-6.1765,120.4291,74.1,5.73
416,kapuskasing,20,417,ca,54,49.1418,-82.8417,57.2,12.75
417,valparaiso,1,418,cl,65,-32.047,-76.8505,80.6,9.75
418,vila velha,20,419,br,62,-29.8392,-23.3726,84.2,14.99
419,apt,0,420,fr,61,44.3046,5.6131,80.6,3.36
420,windhoek,0,421,na,23,-22.6271,16.7936,60.8,3.36
421,niort,0,422,fr,58,46.3063,-0.3313,82.4,5.82
422,nusaybin,0,423,tr,20,37.0977,40.9588,80.6,8.05
423,borogontsy,68,424,ru,54,64.0685,130.7759,60.6,5.39
424,aswan,0,425,eg,13,23.0835,32.765,98.6,6.93
425,kahului,40,426,us,65,27.9229,-151.1149,82.4,17.22
426,taree,75,427,au,93,-31.6015,152.3169,51.8,5.82
427,burhaniye,75,428,tr,88,39.424,26.6934,77.0,8.05
428,ilhabela,0,429,br,100,-25.5687,-43.7054,70.68,4.38
429,vao,76,430,nc,51,-28.3028,164.7993,56.64,9.98
430,sisimiut,12,431,gl,98,67.5922,-58.9649,36.48,1.7
431,adrar,0,432,dz,14,30.4888,1.8378,105.8,2.93
432,pahrump,1,433,us,7,37.6148,-117.0984,98.6,3.71
433,oktyabrskiy,0,434,ru,39,51.9866,154.5837,66.2,8.95
434,lithakia,40,435,gr,78,35.9199,19.1336,78.8,5.82
435,labuan,75,436,my,100,7.2112,113.9027,78.8,2.37
436,bronnoysund,92,437,no,100,65.9153,11.6388,48.2,11.41
437,bull savanna,12,438,jm,73,15.1168,-77.067,83.19,7.07
438,dinguiraye,24,439,gn,87,11.9567,-10.0629,73.2,2.04
439,vallenar,0,440,cl,69,-29.0872,-71.1474,63.93,1.36
440,isakly,0,441,ru,68,53.9817,51.599,56.1,6.96
441,saint-francois,0,442,gp,53,21.62,-48.9607,77.0,2.59
442,gornyak,0,443,ru,83,51.1648,81.5502,56.01,2.93
443,luderitz,0,444,na,88,-33.5663,2.524,52.32,9.75
444,baiyin,0,445,cn,52,37.6043,105.0787,66.2,6.71
445,dargaville,92,446,nz,99,-36.7136,173.395,54.39,27.09
446,griesheim,0,447,de,53,49.8279,8.5683,82.4,4.7
447,lata,0,448,sb,75,-8.4872,169.0862,54.84,2.59
448,evensk,80,449,ru,100,64.8361,160.9789,41.7,4.61
449,safaga,0,450,eg,0,27.0461,34.567,0.0,0.0
450,biltine,56,451,td,72,16.3663,21.3206,75.72,8.41
451,beaupre,75,452,ca,60,47.5885,-71.2912,77.0,4.7
452,presidencia roque saenz pena,0,453,ar,54,-26.6767,-60.9921,77.88,12.21
453,gulshat,0,454,kz,0,46.4884,74.6617,0.0,0.0
454,khorinsk,92,455,ru,85,52.2541,109.4414,61.41,2.37
455,salamiyah,0,456,sy,72,34.0715,38.5039,64.29,11.21
456,hit,0,457,iq,21,34.2659,42.9515,81.93,8.97
457,dubti,8,458,et,24,12.1733,41.085,86.25,11.77
458,itoman,40,459,jp,88,24.3292,127.4995,82.4,20.8
459,norsup,8,460,vu,93,-16.4845,165.8658,76.71,8.19
460,punta alta,0,461,ar,39,-39.4004,-61.4449,82.4,3.36
461,tura,44,462,ru,94,66.2673,99.4601,75.99,3.71
462,arlit,0,463,ne,17,18.6786,6.3477,83.28,2.93
463,gaozhou,56,464,cn,93,22.1662,110.6836,76.53,2.59
464,lolua,0,465,tv,0,-6.2526,176.392,0.0,0.0
465,novoagansk,92,466,ru,97,62.7977,77.0819,56.37,14.23
466,poum,40,467,nc,56,-17.5904,163.6812,69.8,2.24
467,port-cartier,75,468,ca,49,55.9994,-69.3593,68.0,10.29
468,nanortalik,32,469,gl,93,49.7398,-40.0929,37.92,38.16
469,kalmunai,56,470,lk,87,6.6542,82.9553,77.34,6.17
470,umzimvubu,0,471,za,0,-37.8558,35.5817,0.0,0.0
471,mount gambier,80,472,au,93,-44.2645,135.4017,44.76,1.59
472,subaytilah,0,473,tn,0,35.1916,9.0414,0.0,0.0
473,meiganga,88,474,cm,99,6.3456,14.7798,64.11,4.05
474,palabuhanratu,0,475,id,0,-16.4475,103.9143,0.0,0.0
475,rabo de peixe,20,476,pt,88,46.0606,-20.9095,71.6,16.11
476,antofagasta,75,477,cl,71,-23.4145,-70.4312,57.2,9.17
477,mackay,5,478,au,39,-17.5068,154.1268,78.8,6.93
478,havoysund,90,479,no,93,74.754,23.3218,46.4,8.05
479,fianga,0,480,td,0,10.1286,14.9407,0.0,0.0
480,dhola,20,481,in,88,21.8394,71.7325,71.6,2.24
481,bethanien,0,482,na,66,-26.0347,17.3,39.09,3.15
482,bulanash,92,483,ru,69,57.3672,61.8365,65.1,11.43
483,tautira,20,484,pf,65,-18.9792,-147.184,82.4,3.36
484,teberda,0,485,ru,100,43.3681,42.1593,39.18,1.7
485,aktau,0,486,kz,37,43.2387,50.7887,71.6,6.71
486,jamame,88,487,so,85,-0.3119,43.5333,76.8,10.65
487,khor,88,488,qa,97,25.8416,52.0358,60.42,4.83
488,oksfjord,90,489,no,93,73.818,21.6857,51.8,8.05
489,quang ngai,68,490,vn,83,15.0782,109.3572,75.09,2.93
490,heihe,0,491,cn,100,50.1189,126.8663,50.0,5.73
491,tucuman,48,492,ar,63,-26.6958,-66.0369,65.55,2.04
492,okhotsk,92,493,ru,96,60.8142,142.5531,46.11,5.73
493,plettenberg bay,0,494,za,100,-36.7855,24.149,56.46,7.63
494,lodja,44,495,cd,64,-2.6175,23.0223,76.71,2.71
495,samusu,0,496,ws,0,-11.4141,-161.8021,0.0,0.0
496,rungata,0,497,ki,0,0.2987,177.5004,0.0,0.0
497,coquimbo,20,498,cl,87,-27.1042,-89.3124,51.8,9.17
498,mbandaka,24,499,cd,91,0.2106,19.0024,74.1,1.92
499,orekhovo-zuevo,24,500,ru,46,55.8466,38.9581,62.04,12.55
